<?xml version="1.0" encoding="UTF-8"?>
<kml xmlns="http://www.opengis.net/kml/2.2">
<Document>
<name>Fukuoka 6D5N · 2026-04-17 to 04-22</name>
<description>6 adults + 1 toddler · Nissan Serena · Hotel: Chiyo 3-5-13</description>

<Style id="day1"><IconStyle><color>ff3d6bff</color><scale>1.1</scale></IconStyle></Style>
<Style id="day2"><IconStyle><color>ff22c55e</color><scale>1.1</scale></IconStyle></Style>
<Style id="day3"><IconStyle><color>ff4565e9</color><scale>1.1</scale></IconStyle></Style>
<Style id="day4"><IconStyle><color>ffeab308</color><scale>1.1</scale></IconStyle></Style>
<Style id="day5"><IconStyle><color>ffa78bfa</color><scale>1.1</scale></IconStyle></Style>
<Style id="day6"><IconStyle><color>ff6366f1</color><scale>1.1</scale></IconStyle></Style>
<Style id="hotel"><IconStyle><color>ff998c2c</color><scale>1.4</scale></IconStyle></Style>

<Placemark><name>★ HOTEL · Chiyo 3-5-13</name><styleUrl>#hotel</styleUrl><Point><coordinates>130.4218,33.6068,0</coordinates></Point></Placemark>

<Folder><name>Day 1 · 4/17 Arrival</name>
<Placemark><name>1.1 Fukuoka Airport (FUK)</name><styleUrl>#day1</styleUrl><Point><coordinates>130.4510,33.5859,0</coordinates></Point></Placemark>
<Placemark><name>1.2 BRANCH 博多パピヨンガーデン</name><styleUrl>#day1</styleUrl><Point><coordinates>130.4204,33.6090,0</coordinates></Point></Placemark>
<Placemark><name>1.3 博多港塔 Hakata Port Tower</name><styleUrl>#day1</styleUrl><Point><coordinates>130.4035,33.6048,0</coordinates></Point></Placemark>
<Placemark><name>1.4 博多豐一 (Dinner · Sashimi)</name><styleUrl>#day1</styleUrl><Point><coordinates>130.4070,33.5953,0</coordinates></Point></Placemark>
</Folder>

<Folder><name>Day 2 · 4/18 Coastal</name>
<Placemark><name>2.1 海之中道海濱公園</name><styleUrl>#day2</styleUrl><Point><coordinates>130.3520,33.6635,0</coordinates></Point></Placemark>
<Placemark><name>2.2 中西食堂 (志賀島 Lunch)</name><styleUrl>#day2</styleUrl><Point><coordinates>130.3034,33.6688,0</coordinates></Point></Placemark>
<Placemark><name>2.3 肉いち 藥院店 (Dinner · Yakiniku 1)</name><styleUrl>#day2</styleUrl><Point><coordinates>130.3995,33.5798,0</coordinates></Point></Placemark>
</Folder>

<Folder><name>Day 3 · 4/19 Oita Epic</name>
<Placemark><name>3.1 African Safari (Aji)</name><styleUrl>#day3</styleUrl><Point><coordinates>131.4108,33.4448,0</coordinates></Point></Placemark>
<Placemark><name>3.2 別府東洋軒 (Lunch · Toriten)</name><styleUrl>#day3</styleUrl><Point><coordinates>131.4894,33.2918,0</coordinates></Point></Placemark>
<Placemark><name>3.3 九重夢大吊橋</name><styleUrl>#day3</styleUrl><Point><coordinates>131.2261,33.1955,0</coordinates></Point></Placemark>
<Placemark><name>3.4 鳥栖 Premium Outlets</name><styleUrl>#day3</styleUrl><Point><coordinates>130.5102,33.3886,0</coordinates></Point></Placemark>
<Placemark><name>3.5 牧のうどん 鳥栖店 (Dinner)</name><styleUrl>#day3</styleUrl><Point><coordinates>130.5070,33.3760,0</coordinates></Point></Placemark>
</Folder>

<Folder><name>Day 4 · 4/20 Island Day</name>
<Placemark><name>4.1 櫻井二見浦 夫婦岩</name><styleUrl>#day4</styleUrl><Point><coordinates>130.1850,33.6358,0</coordinates></Point></Placemark>
<Placemark><name>4.2 姪浜渡船場 (Meinohama Port)</name><styleUrl>#day4</styleUrl><Point><coordinates>130.3328,33.5895,0</coordinates></Point></Placemark>
<Placemark><name>4.3 能古島海島公園 (Nokonoshima Island Park)</name><styleUrl>#day4</styleUrl><Point><coordinates>130.2598,33.6428,0</coordinates></Point></Placemark>
<Placemark><name>4.4 天神 (Tenjin Shopping)</name><styleUrl>#day4</styleUrl><Point><coordinates>130.3990,33.5912,0</coordinates></Point></Placemark>
<Placemark><name>4.5 稚加榮 本店 (Dinner · Sashimi 2)</name><styleUrl>#day4</styleUrl><Point><coordinates>130.3973,33.5896,0</coordinates></Point></Placemark>
</Folder>

<Folder><name>Day 5 · 4/21 City</name>
<Placemark><name>5.1 福岡市動物園</name><styleUrl>#day5</styleUrl><Point><coordinates>130.3902,33.5765,0</coordinates></Point></Placemark>
<Placemark><name>5.2 博多站 (Hakata Station Shopping)</name><styleUrl>#day5</styleUrl><Point><coordinates>130.4203,33.5904,0</coordinates></Point></Placemark>
<Placemark><name>5.3 大東園 本店 (Dinner · Yakiniku 2)</name><styleUrl>#day5</styleUrl><Point><coordinates>130.4255,33.5897,0</coordinates></Point></Placemark>
</Folder>

<Folder><name>Day 6 · 4/22 Departure</name>
<Placemark><name>6.1 櫛田神社 Kushida Shrine</name><styleUrl>#day6</styleUrl><Point><coordinates>130.4106,33.5928,0</coordinates></Point></Placemark>
<Placemark><name>6.2 川端商店街</name><styleUrl>#day6</styleUrl><Point><coordinates>130.4116,33.5938,0</coordinates></Point></Placemark>
</Folder>

</Document>
</kml>
